[{"name":"Banks","id":"6","locations":[{"name":"Banks County Registrar's Office","address1":"226 Candler Street","city":"Homer","zip":"","coordinates":[-83.4978017,34.3354927]}]},{"name":"Ben Hill","id":"9","locations":[{"name":"Ben Hill Elections Office","address1":"115 W Pine Street ","city":"Fitzgerald","zip":"31750","coordinates":[-83.2574017,31.7139]}]},{"name":"Berrien","id":"10","locations":[{"name":"Berrien County Board of Elections and Registration","address1":"201 N. Davis Street","city":"Nashville","zip":"31639","coordinates":[-83.2516778,31.2084593]}]},{"name":"Brantley","id":"13","locations":[{"name":"Board of Elections and Registration Office","address1":"10305 N. Main St.","address2":"Suite 400","city":"Nahunta","zip":"31553","coordinates":[-81.9805678,31.2082003]}]},{"name":"Brooks","id":"14","locations":[{"name":"elections office","address1":"610 S Highland Rd","city":"Quitman","zip":"31643","coordinates":[-83.5551648,30.7794837]}]},{"name":"Bryan","id":"15","locations":[{"name":"Bryan County Administration Bldg","address1":"66 Capt. Matthew Freeman Dr.","city":"Richmond Hill","zip":"31324","coordinates":[-81.2602868,31.8811072]},{"name":"Bryan County Courthouse","address1":"Commissioners Meeting Room","address2":"42 N. Courthouse St","city":"Pembroke","zip":"31321","coordinates":[-81.6211174,32.1338181]}]},{"name":"Camden","id":"20","locations":[{"name":"Voter Registration","address1":"200 E 4th St","city":"Woodbine","zip":"31569","coordinates":[-81.7232475,30.9681265]}]},{"name":"Catoosa","id":"23","locations":[{"name":"Freedom Center","address1":"5238 Evitt Street","city":"Ringgold","zip":"30736","coordinates":[-85.1069494,34.9159986]},{"name":"Westside Voting Precinct","address1":"3319 Lakeview Dr","city":"Rossville","zip":"30741","coordinates":[-85.2253164,34.9615193]}]},{"name":"Chatham","id":"25","locations":[{"name":"Voter Registration Office","address1":"1117 Eisenhower Drive, Suite E","city":"Savannah","zip":"31401","coordinates":[-81.1013359,32.006771]}]},{"name":"Cherokee","id":"28","locations":[{"name":"Cherokee County Elections & Registration","address1":"400 East Main Street","city":"Canton","zip":"30114","coordinates":[-84.487127,34.236605]}]},{"name":"Columbia","id":"36","locations":[{"name":"Columbia County Board of Elections","address1":"500 Faircloth Drive, Building E","city":"Evans","zip":"30809","coordinates":[-82.1356588,33.5454835]}]},{"name":"Crisp","id":"40","locations":[{"name":"Government Center","address1":"210 S 7th St. Room 103","city":"Cordele","zip":"31015","coordinates":[-83.7832972,31.9671732]},{"name":"Government Center Annex (Ag Bldg)","address1":"110 W 13th Ave.","city":"Cordele","zip":"31015","coordinates":[-83.7838024,31.9672124]}]},{"name":"Dawson","id":"42","locations":[{"name":"Dawson County Board of Elections and Registration","address1":"96 Academy Avenue","city":"Dawsonville","zip":"30534","coordinates":[-84.1231747,34.4201527]}]},{"name":"Decatur","id":"43","locations":[{"name":"Courthouse Annex","address1":"122 West Water Street","city":"Bainbridge","zip":"39817","coordinates":[-84.5768025,30.9065253]},{"name":"Fairgrounds, Chamber 1","address1":"1211 Vada Road","city":"Bainbridge","zip":"39817","coordinates":[-84.5582034,30.9151421]}]},{"name":"Early","id":"49","locations":[{"name":"Elections and Registration Office","address1":"17 McDonald Ave.","city":"Blakely","zip":"39823","coordinates":[-84.9328085,31.378284]}]},{"name":"Fayette","id":"56","locations":[{"name":"Fayette County Elections Office","address1":"140 Stonewall Avenue West, Suite 209","city":"Fayetteville","zip":"30214","coordinates":[-84.457149,33.4470178]}]},{"name":"Glynn","id":"63","locations":[{"name":"Board of Elections","address1":"1815 Gloucester Street","address2":"Second Floor Office Park Building","city":"Brunswick","zip":"31520","coordinates":[-81.4849111,31.1520756]},{"name":"St. Simons Fire Station #2","address1":"1929 Demere Road","city":"St. Simons Island","zip":"31522","coordinates":[-81.3866924,31.1574208]}]},{"name":"Grady","id":"65","locations":[{"name":"Grady County Registrar's Office","address1":"24  3rd Ave NE","city":"Cairo","zip":"39828","coordinates":[-84.2072241,30.8790904]}]},{"name":"Hart","id":"73","locations":[{"name":"Hart County Board of Elections and Registration","address1":"182 Cade Street","address2":"Suite C","city":"Hartwell","zip":"30643","coordinates":[-82.9403807,34.3465231]}]},{"name":"Jeff Davis","id":"80","locations":[{"name":"Jeff Davis County Courthouse","address1":"14 Jeff Davis Street, Room 106","city":"Hazelhurst","zip":"","coordinates":[-82.5998984,31.8623151]}]},{"name":"Lamar","id":"85","locations":[{"name":"Registrar's Office","address1":"408 Thomaston Street","city":"Barnesville","zip":"30204","coordinates":[-84.15761,33.0519465]}]},{"name":"Lee","id":"88","locations":[{"name":"Board of Elections and Registraion Office ","address1":"100 Starksville Ave., North, Suite C","city":"Leesburg","zip":"31763","coordinates":[-84.1680479,31.7319787]}]},{"name":"Lowndes","id":"92","locations":[{"name":"","address1":"2808 N. Oak Street","city":"Valdosta","zip":"31602","coordinates":[-83.2928097,30.8703392]}]},{"name":"McIntosh","id":"98","locations":[{"name":"","address1":"103 Jefferson Street","city":"Darien","zip":"","coordinates":[-81.4337918,31.3714483]}]},{"name":"Mitchell","id":"101","locations":[{"name":"Mitchell County Courthouse","address1":"11 W. Broad Street, Room 101","city":"Camilla","zip":"31730","coordinates":[-84.2092518,31.2316098]}]},{"name":"Randolph","id":"120","locations":[{"name":"Randolph Elections and Registration","address1":"Randolph County Government Center","address2":"93 Front Street","city":"Cuthbert","zip":"39840","coordinates":[-84.7900232,31.7664383]}]},{"name":"Stewart","id":"128","locations":[{"name":"","address1":"1764 Broad Street","city":"Lumpkin","zip":"31815","coordinates":[-84.7954299,32.0510332]}]},{"name":"Taliaferro","id":"131","locations":[{"name":"Taliaferro County Courthouse","address1":"113 Monument Street","city":"Crawfordville","zip":"","coordinates":[-82.8966592,33.5546265]}]},{"name":"Terrell","id":"135","locations":[{"name":"Government Building","address1":"Board of Elections and Registration","address2":"955 Forrester Drive SE","city":"Dawson","zip":"39842","coordinates":[-84.4367007,31.7611471]}]},{"name":"Wayne","id":"151","locations":[{"name":"Wayne County Courthouse","address1":"Registrar's Office","address2":"174 North Brunswick Street","city":"Jesup","zip":"31546","coordinates":[-81.8801091,31.6041828]}]},{"name":"Wilkes","id":"157","locations":[{"name":"Wilkes County Courthouse","address1":"23 Court Street, Room 113","city":"Washington","zip":"30673-1570","coordinates":[-82.7389658,33.7382642]}]}]